{
    "url": "/v1/customers/cus_Kf3bMZuhfEUbQV/deliveries",
    "total_count": 477,
    "object": "list",
    "data": [
        {
            "status": "delivered",
            "dropoff": {
                "phone_number": "646-413-1271",
                "name": "Mager's Old House",
                "notes": "",
                "detailed_address": {
                    "city": "San Francisco",
                    "country": "US",
                    "street_address_1": "690 5th Street",
                    "street_address_2": "",
                    "state": "CA",
                    "zip_code": "94107"
                },
                "location": {
                    "lat": 37.7753293,
                    "lng": -122.3976532
                },
                "address": "690 5th Street"
            },
            "updated": "2017-08-16T05:36:16Z",
            "fee": 1325,
            "quote_id": "dqt_LOEOHxEG9-EqeV",
            "complete": true,
            "courier": null,
            "created": "2017-08-16T05:34:03Z",
            "tip": null,
            "kind": "delivery",
            "manifest": {
                "description": "A good book"
            },
            "currency": "usd",
            "pickup": {
                "phone_number": "646-413-1271",
                "name": "Postmates office",
                "notes": "",
                "detailed_address": {
                    "city": "San Francisco",
                    "country": "US",
                    "street_address_1": "2363 Van Ness Avenue",
                    "street_address_2": "",
                    "state": "CA",
                    "zip_code": "94109"
                },
                "location": {
                    "lat": 37.7974109,
                    "lng": -122.424145
                },
                "address": "2363 Van Ness Avenue"
            },
            "dropoff_identifier": "",
            "dropoff_deadline": "2017-08-16T06:09:03Z",
            "live_mode": false,
            "related_deliveries": [],
            "pickup_eta": null,
            "dropoff_eta": null,
            "id": "del_LOEOHt3oTjl46V"
        },
        {
            "status": "delivered",
            "dropoff": {
                "phone_number": "646-413-1271",
                "name": "Mager's Old House",
                "notes": "",
                "detailed_address": {
                    "city": "San Francisco",
                    "country": "US",
                    "street_address_1": "690 5th Street",
                    "street_address_2": "",
                    "state": "CA",
                    "zip_code": "94107"
                },
                "location": {
                    "lat": 37.7753293,
                    "lng": -122.3976532
                },
                "address": "690 5th Street"
            },
            "updated": "2017-08-14T17:42:51Z",
            "fee": 1325,
            "quote_id": "dqt_LO6V_V-y8059CV",
            "complete": true,
            "courier": null,
            "created": "2017-08-14T17:40:38Z",
            "tip": null,
            "kind": "delivery",
            "manifest": {
                "description": "A good book"
            },
            "currency": "usd",
            "pickup": {
                "phone_number": "646-413-1271",
                "name": "Postmates office",
                "notes": "",
                "detailed_address": {
                    "city": "San Francisco",
                    "country": "US",
                    "street_address_1": "2363 Van Ness Avenue",
                    "street_address_2": "",
                    "state": "CA",
                    "zip_code": "94109"
                },
                "location": {
                    "lat": 37.7974109,
                    "lng": -122.424145
                },
                "address": "2363 Van Ness Avenue"
            },
            "dropoff_identifier": "",
            "dropoff_deadline": "2017-08-14T18:20:38Z",
            "live_mode": false,
            "related_deliveries": [],
            "pickup_eta": null,
            "dropoff_eta": null,
            "id": "del_LO6V_id-kxuMbV"
        },
        {
            "status": "delivered",
            "dropoff": {
                "phone_number": "646-413-1271",
                "name": "Mager's Old House",
                "notes": "",
                "detailed_address": {
                    "city": "San Francisco",
                    "country": "US",
                    "street_address_1": "690 5th Street",
                    "street_address_2": "",
                    "state": "CA",
                    "zip_code": "94107"
                },
                "location": {
                    "lat": 37.7753293,
                    "lng": -122.3976532
                },
                "address": "690 5th Street"
            },
            "updated": "2017-08-14T05:29:17Z",
            "fee": 1325,
            "quote_id": "dqt_LO3odkT0ec3O9F",
            "complete": true,
            "courier": null,
            "created": "2017-08-14T05:27:04Z",
            "tip": null,
            "kind": "delivery",
            "manifest": {
                "description": "A good book"
            },
            "currency": "usd",
            "pickup": {
                "phone_number": "646-413-1271",
                "name": "Postmates office",
                "notes": "",
                "detailed_address": {
                    "city": "San Francisco",
                    "country": "US",
                    "street_address_1": "2363 Van Ness Avenue",
                    "street_address_2": "",
                    "state": "CA",
                    "zip_code": "94109"
                },
                "location": {
                    "lat": 37.7974109,
                    "lng": -122.424145
                },
                "address": "2363 Van Ness Avenue"
            },
            "dropoff_identifier": "",
            "dropoff_deadline": "2017-08-14T06:07:03Z",
            "live_mode": false,
            "related_deliveries": [],
            "pickup_eta": null,
            "dropoff_eta": null,
            "id": "del_LO3odtGrWM--XF"
        },
        {
            "status": "delivered",
            "dropoff": {
                "phone_number": "646-413-1271",
                "name": "Mager's Old House",
                "notes": "",
                "detailed_address": {
                    "city": "San Francisco",
                    "country": "US",
                    "street_address_1": "690 5th Street",
                    "street_address_2": "",
                    "state": "CA",
                    "zip_code": "94107"
                },
                "location": {
                    "lat": 37.7753293,
                    "lng": -122.3976532
                },
                "address": "690 5th Street"
            },
            "updated": "2017-08-14T03:47:55Z",
            "fee": 1225,
            "quote_id": "dqt_LO3RruqEHOHqYk",
            "complete": true,
            "courier": null,
            "created": "2017-08-14T03:45:36Z",
            "tip": null,
            "kind": "delivery",
            "manifest": {
                "description": "A good book"
            },
            "currency": "usd",
            "pickup": {
                "phone_number": "646-413-1271",
                "name": "Postmates office",
                "notes": "",
                "detailed_address": {
                    "city": "San Francisco",
                    "country": "US",
                    "street_address_1": "2363 Van Ness Avenue",
                    "street_address_2": "",
                    "state": "CA",
                    "zip_code": "94109"
                },
                "location": {
                    "lat": 37.7974109,
                    "lng": -122.424145
                },
                "address": "2363 Van Ness Avenue"
            },
            "dropoff_identifier": "",
            "dropoff_deadline": "2017-08-14T04:20:36Z",
            "live_mode": false,
            "related_deliveries": [],
            "pickup_eta": null,
            "dropoff_eta": null,
            "id": "del_LO3RsCeIuLMHvF"
        },
        {
            "status": "delivered",
            "dropoff": {
                "phone_number": "646-413-1271",
                "name": "Mager's Old House",
                "notes": "",
                "detailed_address": {
                    "city": "San Francisco",
                    "country": "US",
                    "street_address_1": "690 5th Street",
                    "street_address_2": "",
                    "state": "CA",
                    "zip_code": "94107"
                },
                "location": {
                    "lat": 37.7753293,
                    "lng": -122.3976532
                },
                "address": "690 5th Street"
            },
            "updated": "2017-08-11T15:07:28Z",
            "fee": 1275,
            "quote_id": "dqt_LNr6dD2MNKLAhk",
            "complete": true,
            "courier": null,
            "created": "2017-08-11T15:05:08Z",
            "tip": null,
            "kind": "delivery",
            "manifest": {
                "description": "A good book"
            },
            "currency": "usd",
            "pickup": {
                "phone_number": "646-413-1271",
                "name": "Postmates office",
                "notes": "",
                "detailed_address": {
                    "city": "San Francisco",
                    "country": "US",
                    "street_address_1": "2363 Van Ness Avenue",
                    "street_address_2": "",
                    "state": "CA",
                    "zip_code": "94109"
                },
                "location": {
                    "lat": 37.7974109,
                    "lng": -122.424145
                },
                "address": "2363 Van Ness Avenue"
            },
            "dropoff_identifier": "",
            "dropoff_deadline": "2017-08-11T15:45:08Z",
            "live_mode": false,
            "related_deliveries": [],
            "pickup_eta": null,
            "dropoff_eta": null,
            "id": "del_LNr6d3xnBVzndk"
        },
        {
            "status": "delivered",
            "dropoff": {
                "phone_number": "646-413-1271",
                "name": "Mager's Old House",
                "notes": "",
                "detailed_address": {
                    "city": "San Francisco",
                    "country": "US",
                    "street_address_1": "690 5th Street",
                    "street_address_2": "",
                    "state": "CA",
                    "zip_code": "94107"
                },
                "location": {
                    "lat": 37.7753293,
                    "lng": -122.3976532
                },
                "address": "690 5th Street"
            },
            "updated": "2017-08-11T03:34:57Z",
            "fee": 1325,
            "quote_id": "dqt_LNo_KKYWXn6YUk",
            "complete": true,
            "courier": null,
            "created": "2017-08-11T03:32:38Z",
            "tip": null,
            "kind": "delivery",
            "manifest": {
                "description": "A good book"
            },
            "currency": "usd",
            "pickup": {
                "phone_number": "646-413-1271",
                "name": "Postmates office",
                "notes": "",
                "detailed_address": {
                    "city": "San Francisco",
                    "country": "US",
                    "street_address_1": "2363 Van Ness Avenue",
                    "street_address_2": "",
                    "state": "CA",
                    "zip_code": "94109"
                },
                "location": {
                    "lat": 37.7974109,
                    "lng": -122.424145
                },
                "address": "2363 Van Ness Avenue"
            },
            "dropoff_identifier": "",
            "dropoff_deadline": "2017-08-11T04:12:38Z",
            "live_mode": false,
            "related_deliveries": [],
            "pickup_eta": null,
            "dropoff_eta": null,
            "id": "del_LNo_Kc-HTBcPdF"
        },
        {
            "status": "delivered",
            "dropoff": {
                "phone_number": "646-413-1271",
                "name": "Mager's Old House",
                "notes": "",
                "detailed_address": {
                    "city": "San Francisco",
                    "country": "US",
                    "street_address_1": "690 5th Street",
                    "street_address_2": "",
                    "state": "CA",
                    "zip_code": "94107"
                },
                "location": {
                    "lat": 37.7753293,
                    "lng": -122.3976532
                },
                "address": "690 5th Street"
            },
            "updated": "2017-08-11T03:05:47Z",
            "fee": 1200,
            "quote_id": "dqt_LNoTWXzcUcSZhF",
            "complete": true,
            "courier": null,
            "created": "2017-08-11T03:03:35Z",
            "tip": null,
            "kind": "delivery",
            "manifest": {
                "description": "A good book"
            },
            "currency": "usd",
            "pickup": {
                "phone_number": "646-413-1271",
                "name": "Postmates office",
                "notes": "",
                "detailed_address": {
                    "city": "San Francisco",
                    "country": "US",
                    "street_address_1": "2363 Van Ness Avenue",
                    "street_address_2": "",
                    "state": "CA",
                    "zip_code": "94109"
                },
                "location": {
                    "lat": 37.7974109,
                    "lng": -122.424145
                },
                "address": "2363 Van Ness Avenue"
            },
            "dropoff_identifier": "",
            "dropoff_deadline": "2017-08-11T03:43:35Z",
            "live_mode": false,
            "related_deliveries": [],
            "pickup_eta": null,
            "dropoff_eta": null,
            "id": "del_LNoTWp-0KXVnw-"
        },
        {
            "status": "delivered",
            "dropoff": {
                "phone_number": "646-413-1271",
                "name": "Mager's Old House",
                "notes": "",
                "detailed_address": {
                    "city": "San Francisco",
                    "country": "US",
                    "street_address_1": "690 5th Street",
                    "street_address_2": "",
                    "state": "CA",
                    "zip_code": "94107"
                },
                "location": {
                    "lat": 37.7753293,
                    "lng": -122.3976532
                },
                "address": "690 5th Street"
            },
            "updated": "2017-08-11T01:40:46Z",
            "fee": 1275,
            "quote_id": "dqt_LNo9ZqBGD916Jk",
            "complete": true,
            "courier": null,
            "created": "2017-08-11T01:38:27Z",
            "tip": null,
            "kind": "delivery",
            "manifest": {
                "description": "A good book"
            },
            "currency": "usd",
            "pickup": {
                "phone_number": "646-413-1271",
                "name": "Postmates office",
                "notes": "",
                "detailed_address": {
                    "city": "San Francisco",
                    "country": "US",
                    "street_address_1": "2363 Van Ness Avenue",
                    "street_address_2": "",
                    "state": "CA",
                    "zip_code": "94109"
                },
                "location": {
                    "lat": 37.7974109,
                    "lng": -122.424145
                },
                "address": "2363 Van Ness Avenue"
            },
            "dropoff_identifier": "",
            "dropoff_deadline": "2017-08-11T02:23:27Z",
            "live_mode": false,
            "related_deliveries": [],
            "pickup_eta": null,
            "dropoff_eta": null,
            "id": "del_LNo9ZyheC06bHV"
        },
        {
            "status": "delivered",
            "dropoff": {
                "phone_number": "646-413-1271",
                "name": "Mager's Old House",
                "notes": "",
                "detailed_address": {
                    "city": "San Francisco",
                    "country": "US",
                    "street_address_1": "690 5th Street",
                    "street_address_2": "",
                    "state": "CA",
                    "zip_code": "94107"
                },
                "location": {
                    "lat": 37.7753293,
                    "lng": -122.3976532
                },
                "address": "690 5th Street"
            },
            "updated": "2017-08-10T20:42:18Z",
            "fee": 1325,
            "quote_id": "dqt_LNn3dxCLF-W8cV",
            "complete": true,
            "courier": null,
            "created": "2017-08-10T20:40:07Z",
            "tip": null,
            "kind": "delivery",
            "manifest": {
                "description": "A good book"
            },
            "currency": "usd",
            "pickup": {
                "phone_number": "646-413-1271",
                "name": "Postmates office",
                "notes": "",
                "detailed_address": {
                    "city": "San Francisco",
                    "country": "US",
                    "street_address_1": "2363 Van Ness Avenue",
                    "street_address_2": "",
                    "state": "CA",
                    "zip_code": "94109"
                },
                "location": {
                    "lat": 37.7974109,
                    "lng": -122.424145
                },
                "address": "2363 Van Ness Avenue"
            },
            "dropoff_identifier": "",
            "dropoff_deadline": "2017-08-10T21:20:07Z",
            "live_mode": false,
            "related_deliveries": [],
            "pickup_eta": null,
            "dropoff_eta": null,
            "id": "del_LNn3dkO6W1w_7-"
        },
        {
            "status": "delivered",
            "dropoff": {
                "phone_number": "646-413-1271",
                "name": "Mager's Old House",
                "notes": "",
                "detailed_address": {
                    "city": "San Francisco",
                    "country": "US",
                    "street_address_1": "690 5th Street",
                    "street_address_2": "",
                    "state": "CA",
                    "zip_code": "94107"
                },
                "location": {
                    "lat": 37.7753293,
                    "lng": -122.3976532
                },
                "address": "690 5th Street"
            },
            "updated": "2017-08-09T22:24:43Z",
            "fee": 1325,
            "quote_id": "dqt_LNiA70EXeT9o_k",
            "complete": true,
            "courier": null,
            "created": "2017-08-09T22:22:24Z",
            "tip": null,
            "kind": "delivery",
            "manifest": {
                "description": "A good book"
            },
            "currency": "usd",
            "pickup": {
                "phone_number": "646-413-1271",
                "name": "Postmates office",
                "notes": "",
                "detailed_address": {
                    "city": "San Francisco",
                    "country": "US",
                    "street_address_1": "2363 Van Ness Avenue",
                    "street_address_2": "",
                    "state": "CA",
                    "zip_code": "94109"
                },
                "location": {
                    "lat": 37.7974109,
                    "lng": -122.424145
                },
                "address": "2363 Van Ness Avenue"
            },
            "dropoff_identifier": "",
            "dropoff_deadline": "2017-08-09T23:07:24Z",
            "live_mode": false,
            "related_deliveries": [],
            "pickup_eta": null,
            "dropoff_eta": null,
            "id": "del_LNiA75vq0pueY-"
        },
        {
            "status": "delivered",
            "dropoff": {
                "phone_number": "646-413-1271",
                "name": "Mager's Old House",
                "notes": "",
                "detailed_address": {
                    "city": "San Francisco",
                    "country": "US",
                    "street_address_1": "690 5th Street",
                    "street_address_2": "",
                    "state": "CA",
                    "zip_code": "94107"
                },
                "location": {
                    "lat": 37.7753293,
                    "lng": -122.3976532
                },
                "address": "690 5th Street"
            },
            "updated": "2017-08-08T15:36:58Z",
            "fee": 1275,
            "quote_id": "dqt_LNbP4_QyXEtQUk",
            "complete": true,
            "courier": null,
            "created": "2017-08-08T15:34:46Z",
            "tip": null,
            "kind": "delivery",
            "manifest": {
                "description": "A good book"
            },
            "currency": "usd",
            "pickup": {
                "phone_number": "646-413-1271",
                "name": "Postmates office",
                "notes": "",
                "detailed_address": {
                    "city": "San Francisco",
                    "country": "US",
                    "street_address_1": "2363 Van Ness Avenue",
                    "street_address_2": "",
                    "state": "CA",
                    "zip_code": "94109"
                },
                "location": {
                    "lat": 37.7974109,
                    "lng": -122.424145
                },
                "address": "2363 Van Ness Avenue"
            },
            "dropoff_identifier": "",
            "dropoff_deadline": "2017-08-08T16:14:46Z",
            "live_mode": false,
            "related_deliveries": [],
            "pickup_eta": null,
            "dropoff_eta": null,
            "id": "del_LNbP4V52Qra7_k"
        },
        {
            "status": "delivered",
            "dropoff": {
                "phone_number": "646-413-1271",
                "name": "Mager's Old House",
                "notes": "",
                "detailed_address": {
                    "city": "San Francisco",
                    "country": "US",
                    "street_address_1": "690 5th Street",
                    "street_address_2": "",
                    "state": "CA",
                    "zip_code": "94107"
                },
                "location": {
                    "lat": 37.7753293,
                    "lng": -122.3976532
                },
                "address": "690 5th Street"
            },
            "updated": "2017-08-08T14:59:07Z",
            "fee": 1325,
            "quote_id": "dqt_LNbGCDeEkxTgOk",
            "complete": true,
            "courier": null,
            "created": "2017-08-08T14:56:52Z",
            "tip": null,
            "kind": "delivery",
            "manifest": {
                "description": "A good book"
            },
            "currency": "usd",
            "pickup": {
                "phone_number": "646-413-1271",
                "name": "Postmates office",
                "notes": "",
                "detailed_address": {
                    "city": "San Francisco",
                    "country": "US",
                    "street_address_1": "2363 Van Ness Avenue",
                    "street_address_2": "",
                    "state": "CA",
                    "zip_code": "94109"
                },
                "location": {
                    "lat": 37.7974109,
                    "lng": -122.424145
                },
                "address": "2363 Van Ness Avenue"
            },
            "dropoff_identifier": "",
            "dropoff_deadline": "2017-08-08T15:36:52Z",
            "live_mode": false,
            "related_deliveries": [],
            "pickup_eta": null,
            "dropoff_eta": null,
            "id": "del_LNbGC5HaHQJqr-"
        },
        {
            "status": "delivered",
            "dropoff": {
                "phone_number": "646-413-1271",
                "name": "Mager's Old House",
                "notes": "",
                "detailed_address": {
                    "city": "San Francisco",
                    "country": "US",
                    "street_address_1": "690 5th Street",
                    "street_address_2": "",
                    "state": "CA",
                    "zip_code": "94107"
                },
                "location": {
                    "lat": 37.7753293,
                    "lng": -122.3976532
                },
                "address": "690 5th Street"
            },
            "updated": "2017-08-08T14:57:38Z",
            "fee": 1275,
            "quote_id": "dqt_LNbFqK2Dc0ZfdF",
            "complete": true,
            "courier": null,
            "created": "2017-08-08T14:55:21Z",
            "tip": null,
            "kind": "delivery",
            "manifest": {
                "description": "A good book"
            },
            "currency": "usd",
            "pickup": {
                "phone_number": "646-413-1271",
                "name": "Postmates office",
                "notes": "",
                "detailed_address": {
                    "city": "San Francisco",
                    "country": "US",
                    "street_address_1": "2363 Van Ness Avenue",
                    "street_address_2": "",
                    "state": "CA",
                    "zip_code": "94109"
                },
                "location": {
                    "lat": 37.7974109,
                    "lng": -122.424145
                },
                "address": "2363 Van Ness Avenue"
            },
            "dropoff_identifier": "",
            "dropoff_deadline": "2017-08-08T15:35:21Z",
            "live_mode": false,
            "related_deliveries": [],
            "pickup_eta": null,
            "dropoff_eta": null,
            "id": "del_LNbFqHCb7UpQx-"
        },
        {
            "status": "delivered",
            "dropoff": {
                "phone_number": "646-413-1271",
                "name": "Mager's Old House",
                "notes": "",
                "detailed_address": {
                    "city": "San Francisco",
                    "country": "US",
                    "street_address_1": "690 5th Street",
                    "street_address_2": "",
                    "state": "CA",
                    "zip_code": "94107"
                },
                "location": {
                    "lat": 37.7753293,
                    "lng": -122.3976532
                },
                "address": "690 5th Street"
            },
            "updated": "2017-08-08T14:57:18Z",
            "fee": 1275,
            "quote_id": "dqt_LNbFm0_KkUakJV",
            "complete": true,
            "courier": null,
            "created": "2017-08-08T14:55:05Z",
            "tip": null,
            "kind": "delivery",
            "manifest": {
                "description": "A good book"
            },
            "currency": "usd",
            "pickup": {
                "phone_number": "646-413-1271",
                "name": "Postmates office",
                "notes": "",
                "detailed_address": {
                    "city": "San Francisco",
                    "country": "US",
                    "street_address_1": "2363 Van Ness Avenue",
                    "street_address_2": "",
                    "state": "CA",
                    "zip_code": "94109"
                },
                "location": {
                    "lat": 37.7974109,
                    "lng": -122.424145
                },
                "address": "2363 Van Ness Avenue"
            },
            "dropoff_identifier": "",
            "dropoff_deadline": "2017-08-08T15:35:05Z",
            "live_mode": false,
            "related_deliveries": [],
            "pickup_eta": null,
            "dropoff_eta": null,
            "id": "del_LNbFmUaNVoKmlF"
        },
        {
            "status": "delivered",
            "dropoff": {
                "phone_number": "646-413-1271",
                "name": "Mager's Old House",
                "notes": "",
                "detailed_address": {
                    "city": "San Francisco",
                    "country": "US",
                    "street_address_1": "690 5th Street",
                    "street_address_2": "",
                    "state": "CA",
                    "zip_code": "94107"
                },
                "location": {
                    "lat": 37.7753293,
                    "lng": -122.3976532
                },
                "address": "690 5th Street"
            },
            "updated": "2017-08-08T14:53:37Z",
            "fee": 1100,
            "quote_id": "dqt_LNbEvEdijsUQwk",
            "complete": true,
            "courier": null,
            "created": "2017-08-08T14:51:24Z",
            "tip": null,
            "kind": "delivery",
            "manifest": {
                "description": "A good book"
            },
            "currency": "usd",
            "pickup": {
                "phone_number": "646-413-1271",
                "name": "Postmates office",
                "notes": "",
                "detailed_address": {
                    "city": "San Francisco",
                    "country": "US",
                    "street_address_1": "2363 Van Ness Avenue",
                    "street_address_2": "",
                    "state": "CA",
                    "zip_code": "94109"
                },
                "location": {
                    "lat": 37.7974109,
                    "lng": -122.424145
                },
                "address": "2363 Van Ness Avenue"
            },
            "dropoff_identifier": "",
            "dropoff_deadline": "2017-08-08T15:31:24Z",
            "live_mode": false,
            "related_deliveries": [],
            "pickup_eta": null,
            "dropoff_eta": null,
            "id": "del_LNbEv6TUmyR-W-"
        },
        {
            "status": "delivered",
            "dropoff": {
                "phone_number": "646-413-1271",
                "name": "Mager's Old House",
                "notes": "",
                "detailed_address": {
                    "city": "San Francisco",
                    "country": "US",
                    "street_address_1": "690 5th Street",
                    "street_address_2": "",
                    "state": "CA",
                    "zip_code": "94107"
                },
                "location": {
                    "lat": 37.7753293,
                    "lng": -122.3976532
                },
                "address": "690 5th Street"
            },
            "updated": "2017-08-04T15:54:04Z",
            "fee": 1100,
            "quote_id": "dqt_LNHN4uPDhrZedk",
            "complete": true,
            "courier": null,
            "created": "2017-08-04T15:51:52Z",
            "tip": null,
            "kind": "delivery",
            "manifest": {
                "description": "A good book"
            },
            "currency": "usd",
            "pickup": {
                "phone_number": "646-413-1271",
                "name": "Postmates office",
                "notes": "",
                "detailed_address": {
                    "city": "San Francisco",
                    "country": "US",
                    "street_address_1": "2363 Van Ness Avenue",
                    "street_address_2": "",
                    "state": "CA",
                    "zip_code": "94109"
                },
                "location": {
                    "lat": 37.7974109,
                    "lng": -122.424145
                },
                "address": "2363 Van Ness Avenue"
            },
            "dropoff_identifier": "",
            "dropoff_deadline": "2017-08-04T16:31:52Z",
            "live_mode": false,
            "related_deliveries": [],
            "pickup_eta": null,
            "dropoff_eta": null,
            "id": "del_LNHN59SDvy7nNk"
        },
        {
            "status": "delivered",
            "dropoff": {
                "phone_number": "646-413-1271",
                "name": "Mager's Old House",
                "notes": "",
                "detailed_address": {
                    "city": "San Francisco",
                    "country": "US",
                    "street_address_1": "690 5th Street",
                    "street_address_2": "",
                    "state": "CA",
                    "zip_code": "94107"
                },
                "location": {
                    "lat": 37.7753293,
                    "lng": -122.3976532
                },
                "address": "690 5th Street"
            },
            "updated": "2017-08-04T15:53:54Z",
            "fee": 1100,
            "quote_id": "dqt_LNHN2dN0n-6vjF",
            "complete": true,
            "courier": null,
            "created": "2017-08-04T15:51:42Z",
            "tip": null,
            "kind": "delivery",
            "manifest": {
                "description": "A good book"
            },
            "currency": "usd",
            "pickup": {
                "phone_number": "646-413-1271",
                "name": "Postmates office",
                "notes": "",
                "detailed_address": {
                    "city": "San Francisco",
                    "country": "US",
                    "street_address_1": "2363 Van Ness Avenue",
                    "street_address_2": "",
                    "state": "CA",
                    "zip_code": "94109"
                },
                "location": {
                    "lat": 37.7974109,
                    "lng": -122.424145
                },
                "address": "2363 Van Ness Avenue"
            },
            "dropoff_identifier": "",
            "dropoff_deadline": "2017-08-04T16:31:42Z",
            "live_mode": false,
            "related_deliveries": [],
            "pickup_eta": null,
            "dropoff_eta": null,
            "id": "del_LNHN2WLa6XbyWF"
        },
        {
            "status": "delivered",
            "dropoff": {
                "phone_number": "646-413-1271",
                "name": "Mager's Old House",
                "notes": "",
                "detailed_address": {
                    "city": "San Francisco",
                    "country": "US",
                    "street_address_1": "690 5th Street",
                    "street_address_2": "",
                    "state": "CA",
                    "zip_code": "94107"
                },
                "location": {
                    "lat": 37.7753293,
                    "lng": -122.3976532
                },
                "address": "690 5th Street"
            },
            "updated": "2017-08-03T16:01:12Z",
            "fee": 1100,
            "quote_id": "dqt_LNC7GS6L6_FjGF",
            "complete": true,
            "courier": null,
            "created": "2017-08-03T15:59:01Z",
            "tip": null,
            "kind": "delivery",
            "manifest": {
                "description": "A good book"
            },
            "currency": "usd",
            "pickup": {
                "phone_number": "646-413-1271",
                "name": "Postmates office",
                "notes": "",
                "detailed_address": {
                    "city": "San Francisco",
                    "country": "US",
                    "street_address_1": "2363 Van Ness Avenue",
                    "street_address_2": "",
                    "state": "CA",
                    "zip_code": "94109"
                },
                "location": {
                    "lat": 37.7974109,
                    "lng": -122.424145
                },
                "address": "2363 Van Ness Avenue"
            },
            "dropoff_identifier": "",
            "dropoff_deadline": "2017-08-03T16:44:01Z",
            "live_mode": false,
            "related_deliveries": [],
            "pickup_eta": null,
            "dropoff_eta": null,
            "id": "del_LNC7GPMkbdo06V"
        },
        {
            "status": "delivered",
            "dropoff": {
                "phone_number": "646-413-1271",
                "name": "Mager's Old House",
                "notes": "",
                "detailed_address": {
                    "city": "San Francisco",
                    "country": "US",
                    "street_address_1": "690 5th Street",
                    "street_address_2": "",
                    "state": "CA",
                    "zip_code": "94107"
                },
                "location": {
                    "lat": 37.7753293,
                    "lng": -122.3976532
                },
                "address": "690 5th Street"
            },
            "updated": "2017-08-02T20:16:19Z",
            "fee": 1350,
            "quote_id": "dqt_LN7mY7PMEVbh8k",
            "complete": true,
            "courier": null,
            "created": "2017-08-02T20:14:05Z",
            "tip": null,
            "kind": "delivery",
            "manifest": {
                "description": "A good book"
            },
            "currency": "usd",
            "pickup": {
                "phone_number": "646-413-1271",
                "name": "Postmates office",
                "notes": "",
                "detailed_address": {
                    "city": "San Francisco",
                    "country": "US",
                    "street_address_1": "2363 Van Ness Avenue",
                    "street_address_2": "",
                    "state": "CA",
                    "zip_code": "94109"
                },
                "location": {
                    "lat": 37.7974109,
                    "lng": -122.424145
                },
                "address": "2363 Van Ness Avenue"
            },
            "dropoff_identifier": "",
            "dropoff_deadline": "2017-08-02T20:54:05Z",
            "live_mode": false,
            "related_deliveries": [],
            "pickup_eta": null,
            "dropoff_eta": null,
            "id": "del_LN7mYR5Kz3O9h-"
        },
        {
            "status": "delivered",
            "dropoff": {
                "phone_number": "646-413-1271",
                "name": "Mager's Old House",
                "notes": "",
                "detailed_address": {
                    "city": "San Francisco",
                    "country": "US",
                    "street_address_1": "690 5th Street",
                    "street_address_2": "",
                    "state": "CA",
                    "zip_code": "94107"
                },
                "location": {
                    "lat": 37.7753293,
                    "lng": -122.3976532
                },
                "address": "690 5th Street"
            },
            "updated": "2017-08-02T20:15:29Z",
            "fee": 1225,
            "quote_id": "dqt_LN7mMAOtyWjJqF",
            "complete": true,
            "courier": null,
            "created": "2017-08-02T20:13:17Z",
            "tip": null,
            "kind": "delivery",
            "manifest": {
                "description": "A good book"
            },
            "currency": "usd",
            "pickup": {
                "phone_number": "646-413-1271",
                "name": "Postmates office",
                "notes": "",
                "detailed_address": {
                    "city": "San Francisco",
                    "country": "US",
                    "street_address_1": "2363 Van Ness Avenue",
                    "street_address_2": "",
                    "state": "CA",
                    "zip_code": "94109"
                },
                "location": {
                    "lat": 37.7974109,
                    "lng": -122.424145
                },
                "address": "2363 Van Ness Avenue"
            },
            "dropoff_identifier": "",
            "dropoff_deadline": "2017-08-02T20:53:17Z",
            "live_mode": false,
            "related_deliveries": [],
            "pickup_eta": null,
            "dropoff_eta": null,
            "id": "del_LN7mMRx_l6ZRiV"
        },
        {
            "status": "delivered",
            "dropoff": {
                "phone_number": "646-413-1271",
                "name": "Mager's Old House",
                "notes": "",
                "detailed_address": {
                    "city": "San Francisco",
                    "country": "US",
                    "street_address_1": "690 5th Street",
                    "street_address_2": "",
                    "state": "CA",
                    "zip_code": "94107"
                },
                "location": {
                    "lat": 37.7753293,
                    "lng": -122.3976532
                },
                "address": "690 5th Street"
            },
            "updated": "2017-08-02T20:15:10Z",
            "fee": 1225,
            "quote_id": "dqt_LN7mFXbB6XWrXV",
            "complete": true,
            "courier": null,
            "created": "2017-08-02T20:12:50Z",
            "tip": null,
            "kind": "delivery",
            "manifest": {
                "description": "A good book"
            },
            "currency": "usd",
            "pickup": {
                "phone_number": "646-413-1271",
                "name": "Postmates office",
                "notes": "",
                "detailed_address": {
                    "city": "San Francisco",
                    "country": "US",
                    "street_address_1": "2363 Van Ness Avenue",
                    "street_address_2": "",
                    "state": "CA",
                    "zip_code": "94109"
                },
                "location": {
                    "lat": 37.7974109,
                    "lng": -122.424145
                },
                "address": "2363 Van Ness Avenue"
            },
            "dropoff_identifier": "",
            "dropoff_deadline": "2017-08-02T20:52:50Z",
            "live_mode": false,
            "related_deliveries": [],
            "pickup_eta": null,
            "dropoff_eta": null,
            "id": "del_LN7mFVZP9Xc0X-"
        },
        {
            "status": "delivered",
            "dropoff": {
                "phone_number": "646-413-1271",
                "name": "Mager's Old House",
                "notes": "",
                "detailed_address": {
                    "city": "San Francisco",
                    "country": "US",
                    "street_address_1": "690 5th Street",
                    "street_address_2": "",
                    "state": "CA",
                    "zip_code": "94107"
                },
                "location": {
                    "lat": 37.7753293,
                    "lng": -122.3976532
                },
                "address": "690 5th Street"
            },
            "updated": "2017-08-02T15:46:16Z",
            "fee": 1100,
            "quote_id": "dqt_LN6nE2PH04KR-F",
            "complete": true,
            "courier": null,
            "created": "2017-08-02T15:43:56Z",
            "tip": null,
            "kind": "delivery",
            "manifest": {
                "description": "A good book"
            },
            "currency": "usd",
            "pickup": {
                "phone_number": "646-413-1271",
                "name": "Postmates office",
                "notes": "",
                "detailed_address": {
                    "city": "San Francisco",
                    "country": "US",
                    "street_address_1": "2363 Van Ness Avenue",
                    "street_address_2": "",
                    "state": "CA",
                    "zip_code": "94109"
                },
                "location": {
                    "lat": 37.7974109,
                    "lng": -122.424145
                },
                "address": "2363 Van Ness Avenue"
            },
            "dropoff_identifier": "",
            "dropoff_deadline": "2017-08-02T16:23:56Z",
            "live_mode": false,
            "related_deliveries": [],
            "pickup_eta": null,
            "dropoff_eta": null,
            "id": "del_LN6nEBOc0EPAak"
        },
        {
            "status": "delivered",
            "dropoff": {
                "phone_number": "646-413-1271",
                "name": "Mager's Old House",
                "notes": "",
                "detailed_address": {
                    "city": "San Francisco",
                    "country": "US",
                    "street_address_1": "690 5th Street",
                    "street_address_2": "",
                    "state": "CA",
                    "zip_code": "94107"
                },
                "location": {
                    "lat": 37.7753293,
                    "lng": -122.3976532
                },
                "address": "690 5th Street"
            },
            "updated": "2017-08-02T15:44:26Z",
            "fee": 1100,
            "quote_id": "dqt_LN6moGqwKUb3Tk",
            "complete": true,
            "courier": null,
            "created": "2017-08-02T15:42:09Z",
            "tip": null,
            "kind": "delivery",
            "manifest": {
                "description": "A good book"
            },
            "currency": "usd",
            "pickup": {
                "phone_number": "646-413-1271",
                "name": "Postmates office",
                "notes": "",
                "detailed_address": {
                    "city": "San Francisco",
                    "country": "US",
                    "street_address_1": "2363 Van Ness Avenue",
                    "street_address_2": "",
                    "state": "CA",
                    "zip_code": "94109"
                },
                "location": {
                    "lat": 37.7974109,
                    "lng": -122.424145
                },
                "address": "2363 Van Ness Avenue"
            },
            "dropoff_identifier": "",
            "dropoff_deadline": "2017-08-02T16:27:09Z",
            "live_mode": false,
            "related_deliveries": [],
            "pickup_eta": null,
            "dropoff_eta": null,
            "id": "del_LN6moRJFLGqEnF"
        },
        {
            "status": "delivered",
            "dropoff": {
                "phone_number": "714-875-2468",
                "name": "Lazy Dog Lab 2016",
                "notes": "",
                "detailed_address": {
                    "city": "San Francisco",
                    "country": "US",
                    "street_address_1": "690 5th Street",
                    "street_address_2": "",
                    "state": "CA",
                    "zip_code": "94107"
                },
                "location": {
                    "lat": 37.7753293,
                    "lng": -122.3976532
                },
                "address": "690 5th Street"
            },
            "updated": "2017-08-01T20:55:59Z",
            "fee": 1325,
            "quote_id": "dqt_LN2eKC9nvnY4Tk",
            "complete": true,
            "courier": null,
            "created": "2017-08-01T20:53:41Z",
            "tip": null,
            "kind": "delivery",
            "manifest": {
                "description": "21582484"
            },
            "currency": "usd",
            "pickup": {
                "phone_number": "888-888-8888",
                "name": "Lazy Dog Lab 2016",
                "notes": "",
                "detailed_address": {
                    "city": "San Francisco",
                    "country": "US",
                    "street_address_1": "2363 Van Ness Avenue",
                    "street_address_2": "",
                    "state": "CA",
                    "zip_code": "94109"
                },
                "location": {
                    "lat": 37.7974109,
                    "lng": -122.424145
                },
                "address": "2363 Van Ness Avenue"
            },
            "dropoff_identifier": "",
            "dropoff_deadline": "2017-08-01T21:33:41Z",
            "live_mode": false,
            "related_deliveries": [],
            "pickup_eta": null,
            "dropoff_eta": null,
            "id": "del_LN2eKHpSMstnv-"
        },
        {
            "status": "delivered",
            "dropoff": {
                "phone_number": "714-875-2468",
                "name": "Lazy Dog Lab 2016",
                "notes": "",
                "detailed_address": {
                    "city": "San Francisco",
                    "country": "US",
                    "street_address_1": "690 5th Street",
                    "street_address_2": "",
                    "state": "CA",
                    "zip_code": "94107"
                },
                "location": {
                    "lat": 37.7753293,
                    "lng": -122.3976532
                },
                "address": "690 5th Street"
            },
            "updated": "2017-08-01T20:51:49Z",
            "fee": 1325,
            "quote_id": "dqt_LN2dLdWj15lOLV",
            "complete": true,
            "courier": null,
            "created": "2017-08-01T20:49:30Z",
            "tip": null,
            "kind": "delivery",
            "manifest": {
                "description": "41282483"
            },
            "currency": "usd",
            "pickup": {
                "phone_number": "888-888-8888",
                "name": "Lazy Dog Lab 2016",
                "notes": "",
                "detailed_address": {
                    "city": "San Francisco",
                    "country": "US",
                    "street_address_1": "2363 Van Ness Avenue",
                    "street_address_2": "",
                    "state": "CA",
                    "zip_code": "94109"
                },
                "location": {
                    "lat": 37.7974109,
                    "lng": -122.424145
                },
                "address": "2363 Van Ness Avenue"
            },
            "dropoff_identifier": "",
            "dropoff_deadline": "2017-08-01T21:29:30Z",
            "live_mode": false,
            "related_deliveries": [],
            "pickup_eta": null,
            "dropoff_eta": null,
            "id": "del_LN2dLdCInFQ-a-"
        },
        {
            "status": "delivered",
            "dropoff": {
                "phone_number": "714-875-2468",
                "name": "Lazy Dog Lab 2016",
                "notes": "",
                "detailed_address": {
                    "city": "San Francisco",
                    "country": "US",
                    "street_address_1": "690 5th Street",
                    "street_address_2": "",
                    "state": "CA",
                    "zip_code": "94107"
                },
                "location": {
                    "lat": 37.7753293,
                    "lng": -122.3976532
                },
                "address": "690 5th Street"
            },
            "updated": "2017-08-01T20:51:09Z",
            "fee": 1100,
            "quote_id": "dqt_LN2dBeTncbixWk",
            "complete": true,
            "courier": null,
            "created": "2017-08-01T20:48:50Z",
            "tip": null,
            "kind": "delivery",
            "manifest": {
                "description": "51182482"
            },
            "currency": "usd",
            "pickup": {
                "phone_number": "888-888-8888",
                "name": "Lazy Dog Lab 2016",
                "notes": "",
                "detailed_address": {
                    "city": "San Francisco",
                    "country": "US",
                    "street_address_1": "2363 Van Ness Avenue",
                    "street_address_2": "",
                    "state": "CA",
                    "zip_code": "94109"
                },
                "location": {
                    "lat": 37.7974109,
                    "lng": -122.424145
                },
                "address": "2363 Van Ness Avenue"
            },
            "dropoff_identifier": "",
            "dropoff_deadline": "2017-08-01T21:28:50Z",
            "live_mode": false,
            "related_deliveries": [],
            "pickup_eta": null,
            "dropoff_eta": null,
            "id": "del_LN2dBg7qlFODLk"
        },
        {
            "status": "delivered",
            "dropoff": {
                "phone_number": "646-413-1271",
                "name": "Mager's Old House",
                "notes": "",
                "detailed_address": {
                    "city": "San Francisco",
                    "country": "US",
                    "street_address_1": "690 5th Street",
                    "street_address_2": "",
                    "state": "CA",
                    "zip_code": "94107"
                },
                "location": {
                    "lat": 37.7753293,
                    "lng": -122.3976532
                },
                "address": "690 5th Street"
            },
            "updated": "2017-08-01T18:08:05Z",
            "fee": 1100,
            "quote_id": "dqt_LN21yRDX1giA--",
            "complete": true,
            "courier": null,
            "created": "2017-08-01T18:05:45Z",
            "tip": null,
            "kind": "delivery",
            "manifest": {
                "description": "A good book"
            },
            "currency": "usd",
            "pickup": {
                "phone_number": "646-413-1271",
                "name": "Postmates office",
                "notes": "",
                "detailed_address": {
                    "city": "San Francisco",
                    "country": "US",
                    "street_address_1": "2363 Van Ness Avenue",
                    "street_address_2": "",
                    "state": "CA",
                    "zip_code": "94109"
                },
                "location": {
                    "lat": 37.7974109,
                    "lng": -122.424145
                },
                "address": "2363 Van Ness Avenue"
            },
            "dropoff_identifier": "",
            "dropoff_deadline": "2017-08-01T18:45:45Z",
            "live_mode": false,
            "related_deliveries": [],
            "pickup_eta": null,
            "dropoff_eta": null,
            "id": "del_LN21yUbL3-sD3F"
        },
        {
            "status": "delivered",
            "dropoff": {
                "phone_number": "646-413-1271",
                "name": "Mager's Old House",
                "notes": "",
                "detailed_address": {
                    "city": "San Francisco",
                    "country": "US",
                    "street_address_1": "690 5th Street",
                    "street_address_2": "",
                    "state": "CA",
                    "zip_code": "94107"
                },
                "location": {
                    "lat": 37.7753293,
                    "lng": -122.3976532
                },
                "address": "690 5th Street"
            },
            "updated": "2017-08-01T13:41:01Z",
            "fee": 1325,
            "quote_id": "dqt_LN13OYZeF6P-bk",
            "complete": true,
            "courier": null,
            "created": "2017-08-01T13:38:46Z",
            "tip": null,
            "kind": "delivery",
            "manifest": {
                "description": "A good book"
            },
            "currency": "usd",
            "pickup": {
                "phone_number": "646-413-1271",
                "name": "Postmates office",
                "notes": "",
                "detailed_address": {
                    "city": "San Francisco",
                    "country": "US",
                    "street_address_1": "2363 Van Ness Avenue",
                    "street_address_2": "",
                    "state": "CA",
                    "zip_code": "94109"
                },
                "location": {
                    "lat": 37.7974109,
                    "lng": -122.424145
                },
                "address": "2363 Van Ness Avenue"
            },
            "dropoff_identifier": "",
            "dropoff_deadline": "2017-08-01T14:13:46Z",
            "live_mode": false,
            "related_deliveries": [],
            "pickup_eta": null,
            "dropoff_eta": null,
            "id": "del_LN13OaN3-aGwIk"
        },
        {
            "status": "delivered",
            "dropoff": {
                "phone_number": "714-875-2468",
                "name": "Lazy Dog Lab 2016",
                "notes": "",
                "detailed_address": {
                    "city": "San Francisco",
                    "country": "US",
                    "street_address_1": "690 5th Street",
                    "street_address_2": "",
                    "state": "CA",
                    "zip_code": "94107"
                },
                "location": {
                    "lat": 37.7753293,
                    "lng": -122.3976532
                },
                "address": "690 5th Street"
            },
            "updated": "2017-08-01T06:00:54Z",
            "fee": 1375,
            "quote_id": "dqt_LN-NZZInoJkrGk",
            "complete": true,
            "courier": null,
            "created": "2017-08-01T05:58:42Z",
            "tip": null,
            "kind": "delivery",
            "manifest": {
                "description": "61482481"
            },
            "currency": "usd",
            "pickup": {
                "phone_number": "888-888-8888",
                "name": "Lazy Dog Lab 2016",
                "notes": "",
                "detailed_address": {
                    "city": "San Francisco",
                    "country": "US",
                    "street_address_1": "2363 Van Ness Avenue",
                    "street_address_2": "",
                    "state": "CA",
                    "zip_code": "94109"
                },
                "location": {
                    "lat": 37.7974109,
                    "lng": -122.424145
                },
                "address": "2363 Van Ness Avenue"
            },
            "dropoff_identifier": "",
            "dropoff_deadline": "2017-08-01T06:33:42Z",
            "live_mode": false,
            "related_deliveries": [],
            "pickup_eta": null,
            "dropoff_eta": null,
            "id": "del_LN-NZba_70aAVV"
        },
        {
            "status": "delivered",
            "dropoff": {
                "phone_number": "646-413-1271",
                "name": "Mager's Old House",
                "notes": "",
                "detailed_address": {
                    "city": "San Francisco",
                    "country": "US",
                    "street_address_1": "690 5th Street",
                    "street_address_2": "",
                    "state": "CA",
                    "zip_code": "94107"
                },
                "location": {
                    "lat": 37.7753293,
                    "lng": -122.3976532
                },
                "address": "690 5th Street"
            },
            "updated": "2017-07-31T21:49:26Z",
            "fee": 1325,
            "quote_id": "dqt_LMy_Lkrc3QIIB-",
            "complete": true,
            "courier": null,
            "created": "2017-07-31T21:47:07Z",
            "tip": null,
            "kind": "delivery",
            "manifest": {
                "description": "A good book"
            },
            "currency": "usd",
            "pickup": {
                "phone_number": "646-413-1271",
                "name": "Postmates office",
                "notes": "",
                "detailed_address": {
                    "city": "San Francisco",
                    "country": "US",
                    "street_address_1": "2363 Van Ness Avenue",
                    "street_address_2": "",
                    "state": "CA",
                    "zip_code": "94109"
                },
                "location": {
                    "lat": 37.7974109,
                    "lng": -122.424145
                },
                "address": "2363 Van Ness Avenue"
            },
            "dropoff_identifier": "",
            "dropoff_deadline": "2017-07-31T22:27:07Z",
            "live_mode": false,
            "related_deliveries": [],
            "pickup_eta": null,
            "dropoff_eta": null,
            "id": "del_LMy_LmO6XZzadV"
        },
        {
            "status": "delivered",
            "dropoff": {
                "phone_number": "714-875-2468",
                "name": "Lazy Dog Lab 2016",
                "notes": "",
                "detailed_address": {
                    "city": "San Francisco",
                    "country": "US",
                    "street_address_1": "690 5th Street",
                    "street_address_2": "",
                    "state": "CA",
                    "zip_code": "94107"
                },
                "location": {
                    "lat": 37.7753293,
                    "lng": -122.3976532
                },
                "address": "690 5th Street"
            },
            "updated": "2017-07-25T05:34:27Z",
            "fee": 1225,
            "quote_id": "dqt_LMQMqUHiCQWj2-",
            "complete": true,
            "courier": null,
            "created": "2017-07-25T05:32:10Z",
            "tip": null,
            "kind": "delivery",
            "manifest": {
                "description": "31382365"
            },
            "currency": "usd",
            "pickup": {
                "phone_number": "888-888-8888",
                "name": "Lazy Dog Lab 2016",
                "notes": "",
                "detailed_address": {
                    "city": "San Francisco",
                    "country": "US",
                    "street_address_1": "2363 Van Ness Avenue",
                    "street_address_2": "",
                    "state": "CA",
                    "zip_code": "94109"
                },
                "location": {
                    "lat": 37.7974109,
                    "lng": -122.424145
                },
                "address": "2363 Van Ness Avenue"
            },
            "dropoff_identifier": "",
            "dropoff_deadline": "2017-07-25T06:07:10Z",
            "live_mode": false,
            "related_deliveries": [],
            "pickup_eta": null,
            "dropoff_eta": null,
            "id": "del_LMQMqeinutHzdF"
        },
        {
            "status": "delivered",
            "dropoff": {
                "phone_number": "714-875-2468",
                "name": "Lazy Dog Lab 2016",
                "notes": "",
                "detailed_address": {
                    "city": "San Francisco",
                    "country": "US",
                    "street_address_1": "690 5th Street",
                    "street_address_2": "",
                    "state": "CA",
                    "zip_code": "94107"
                },
                "location": {
                    "lat": 37.7753293,
                    "lng": -122.3976532
                },
                "address": "690 5th Street"
            },
            "updated": "2017-07-25T05:19:17Z",
            "fee": 1325,
            "quote_id": "dqt_LMQJHWhO2uLqik",
            "complete": true,
            "courier": null,
            "created": "2017-07-25T05:16:58Z",
            "tip": null,
            "kind": "delivery",
            "manifest": {
                "description": "31382365"
            },
            "currency": "usd",
            "pickup": {
                "phone_number": "888-888-8888",
                "name": "Lazy Dog Lab 2016",
                "notes": "",
                "detailed_address": {
                    "city": "San Francisco",
                    "country": "US",
                    "street_address_1": "2363 Van Ness Avenue",
                    "street_address_2": "",
                    "state": "CA",
                    "zip_code": "94109"
                },
                "location": {
                    "lat": 37.7974109,
                    "lng": -122.424145
                },
                "address": "2363 Van Ness Avenue"
            },
            "dropoff_identifier": "",
            "dropoff_deadline": "2017-07-25T05:51:58Z",
            "live_mode": false,
            "related_deliveries": [],
            "pickup_eta": null,
            "dropoff_eta": null,
            "id": "del_LMQJHisuQH0sgF"
        }
    ],
    "next_href": "/v1/customers/cus_Kf3bMZuhfEUbQV/deliveries?filter=pending&limit=32&offset=32"
}